{
"type": "FeatureCollection",
"name": "River_Piers",
"crs": { "type": "name", "properties": { "name": "urn:ogc:def:crs:OGC:1.3:CRS84" } },
"features": [
{ "type": "Feature", "properties": { "NAME": "St. George Wharf Pier", "OBJECTID": 1, "STATUS": "Current" }, "geometry": { "type": "Point", "coordinates": [ -0.127261262432909, 51.486356985614897 ] } },
{ "type": "Feature", "properties": { "NAME": "Blackfriars Pier", "OBJECTID": 2, "STATUS": "Current" }, "geometry": { "type": "Point", "coordinates": [ -0.106475783961433, 51.510716773101301 ] } },
{ "type": "Feature", "properties": { "NAME": "Woolwich Royal Arsenal Pier", "OBJECTID": 3, "STATUS": "Current" }, "geometry": { "type": "Point", "coordinates": [ 0.070776589197831, 51.495904463768397 ] } },
{ "type": "Feature", "properties": { "NAME": "North Greenwich Pier", "OBJECTID": 4, "STATUS": "Current" }, "geometry": { "type": "Point", "coordinates": [ 0.009191005999947, 51.502218598037203 ] } },
{ "type": "Feature", "properties": { "NAME": "Greenwich Pier", "OBJECTID": 5, "STATUS": "Current" }, "geometry": { "type": "Point", "coordinates": [ -0.008683814501915, 51.484187389906303 ] } },
{ "type": "Feature", "properties": { "NAME": "Masthouse Terrace Pier", "OBJECTID": 6, "STATUS": "Current" }, "geometry": { "type": "Point", "coordinates": [ -0.022143628296463, 51.487346819438201 ] } },
{ "type": "Feature", "properties": { "NAME": "Greenland Pier", "OBJECTID": 7, "STATUS": "Current" }, "geometry": { "type": "Point", "coordinates": [ -0.031790168203898, 51.494802188045497 ] } },
{ "type": "Feature", "properties": { "NAME": "Tower Pier", "OBJECTID": 8, "STATUS": "Current" }, "geometry": { "type": "Point", "coordinates": [ -0.078846144834142, 51.507344008752 ] } },
{ "type": "Feature", "properties": { "NAME": "London Bridge City Pier", "OBJECTID": 9, "STATUS": "Current" }, "geometry": { "type": "Point", "coordinates": [ -0.084499427100548, 51.506915751663598 ] } },
{ "type": "Feature", "properties": { "NAME": "London Eye Pier", "OBJECTID": 10, "STATUS": "Current" }, "geometry": { "type": "Point", "coordinates": [ -0.120510579430959, 51.503406773875199 ] } },
{ "type": "Feature", "properties": { "NAME": "Canary Wharf Pier", "OBJECTID": 11, "STATUS": "Current" }, "geometry": { "type": "Point", "coordinates": [ -0.028956595487778, 51.505383913781202 ] } },
{ "type": "Feature", "properties": { "NAME": "Wapping Pier", "OBJECTID": 12, "STATUS": "Current" }, "geometry": { "type": "Point", "coordinates": [ -0.056937113768844, 51.503073734606801 ] } },
{ "type": "Feature", "properties": { "NAME": "Bankside Pier", "OBJECTID": 13, "STATUS": "Current" }, "geometry": { "type": "Point", "coordinates": [ -0.097130906698779, 51.508793995022501 ] } },
{ "type": "Feature", "properties": { "NAME": "Millbank Pier", "OBJECTID": 14, "STATUS": "Current" }, "geometry": { "type": "Point", "coordinates": [ -0.12461590203208, 51.491854123715299 ] } },
{ "type": "Feature", "properties": { "NAME": "Doubletree Docklands Nelson Dock Pier", "OBJECTID": 15, "STATUS": "Current" }, "geometry": { "type": "Point", "coordinates": [ -0.03177477922782, 51.504522987957202 ] } },
{ "type": "Feature", "properties": { "NAME": "Embankment Pier", "OBJECTID": 16, "STATUS": "Current" }, "geometry": { "type": "Point", "coordinates": [ -0.120947150666185, 51.5075053751506 ] } },
{ "type": "Feature", "properties": { "NAME": "Putney Pier", "OBJECTID": 17, "STATUS": "Current" }, "geometry": { "type": "Point", "coordinates": [ -0.215461037977093, 51.4673554374383 ] } },
{ "type": "Feature", "properties": { "NAME": "Wandsworth Riverside Quarter Pier", "OBJECTID": 18, "STATUS": "Current" }, "geometry": { "type": "Point", "coordinates": [ -0.198446369705893, 51.4632554349947 ] } },
{ "type": "Feature", "properties": { "NAME": "Chelsea Harbour Pier", "OBJECTID": 19, "STATUS": "Current" }, "geometry": { "type": "Point", "coordinates": [ -0.179922720124194, 51.474003164932697 ] } },
{ "type": "Feature", "properties": { "NAME": "Cadogan Pier", "OBJECTID": 20, "STATUS": "Current" }, "geometry": { "type": "Point", "coordinates": [ -0.166362544831412, 51.482874340956997 ] } },
{ "type": "Feature", "properties": { "NAME": "New Providence Wharf Pier", "OBJECTID": 21, "STATUS": "Proposed" }, "geometry": { "type": "Point", "coordinates": [ -0.001739507555918, 51.506802314002897 ] } },
{ "type": "Feature", "properties": { "NAME": "North Grenwich West Pier", "OBJECTID": 22, "STATUS": "Proposed" }, "geometry": { "type": "Point", "coordinates": [ -0.002943184529809, 51.500081022555399 ] } },
{ "type": "Feature", "properties": { "NAME": "St Katharine Pier", "OBJECTID": 23, "STATUS": "Current" }, "geometry": { "type": "Point", "coordinates": [ -0.073522903338923, 51.505995217577897 ] } },
{ "type": "Feature", "properties": { "NAME": "Festival Pier", "OBJECTID": 24, "STATUS": "Current" }, "geometry": { "type": "Point", "coordinates": [ -0.117762309939293, 51.506992973622403 ] } },
{ "type": "Feature", "properties": { "NAME": "Woolwich Ferry South Terminal", "OBJECTID": 25, "STATUS": "Current" }, "geometry": { "type": "Point", "coordinates": [ 0.062051222326843, 51.495154284670299 ] } },
{ "type": "Feature", "properties": { "NAME": "Woolwich Ferry North Terminal", "OBJECTID": 26, "STATUS": "Current" }, "geometry": { "type": "Point", "coordinates": [ 0.060795883932571, 51.497746042613699 ] } },
{ "type": "Feature", "properties": { "NAME": "Richmond St. Helena Pier", "OBJECTID": 27, "STATUS": "Current" }, "geometry": { "type": "Point", "coordinates": [ -0.308512450773865, 51.458798878351601 ] } },
{ "type": "Feature", "properties": { "NAME": "Hampton Court Pier", "OBJECTID": 28, "STATUS": "Current" }, "geometry": { "type": "Point", "coordinates": [ -0.343626888977845, 51.403661217427199 ] } },
{ "type": "Feature", "properties": { "NAME": "Westminster Pier", "OBJECTID": 29, "STATUS": "Current" }, "geometry": { "type": "Point", "coordinates": [ -0.123237248210001, 51.501753119018701 ] } },
{ "type": "Feature", "properties": { "NAME": "Plantation Wharf Pier", "OBJECTID": 30, "STATUS": "Current" }, "geometry": { "type": "Point", "coordinates": [ -0.182351661510177, 51.4667974990465 ] } },
{ "type": "Feature", "properties": { "NAME": "Kew Pier", "OBJECTID": 31, "STATUS": "Current" }, "geometry": { "type": "Point", "coordinates": [ -0.286524201469557, 51.486614460761501 ] } },
{ "type": "Feature", "properties": { "NAME": "Richmond Landing Stage Pier", "OBJECTID": 32, "STATUS": "Current" }, "geometry": { "type": "Point", "coordinates": [ -0.305089931605931, 51.456391919423098 ] } },
{ "type": "Feature", "properties": { "NAME": "Kingston Turks Pier", "OBJECTID": 33, "STATUS": "Current" }, "geometry": { "type": "Point", "coordinates": [ -0.308059847412809, 51.411733387678503 ] } },
{ "type": "Feature", "properties": { "NAME": "Kingston Town End Pier", "OBJECTID": 34, "STATUS": "Current" }, "geometry": { "type": "Point", "coordinates": [ -0.308557965630138, 51.405452186193301 ] } },
{ "type": "Feature", "properties": { "NAME": "Battersea Pier", "OBJECTID": 35, "STATUS": "Proposed" }, "geometry": { "type": "Point", "coordinates": [ -0.146159214665348, 51.483803601196797 ] } }
]
}
