{
"type": "FeatureCollection",
"name": "Bus_Stations",
"crs": { "type": "name", "properties": { "name": "urn:ogc:def:crs:OGC:1.3:CRS84" } },
"features": [
{ "type": "Feature", "properties": { "OBJECTID": 133, "STOP_NAME": "Putney Bridge", "STATION_NAME": "Putney Bridge", "DATA_SOURCE": null, "EASTING": 524514, "NORTHING": 175888, "COMMENT_": "Station Approach\nPutney Bridge\nHammersmith and Fulham SW6 3UH", "DATASET_LAST_UPDATED": "2024-04-30T00:00:00Z" }, "geometry": { "type": "Point", "coordinates": [ -0.208802400979051, 51.468270054508601 ] } },
{ "type": "Feature", "properties": { "OBJECTID": 134, "STOP_NAME": "Vauxhall Cross", "STATION_NAME": "Vauxhall Cross", "DATA_SOURCE": null, "EASTING": 530358, "NORTHING": 178008, "COMMENT_": "33 Bondway\nLambeth SW8 1SJ ", "DATASET_LAST_UPDATED": "2024-04-30T00:00:00Z" }, "geometry": { "type": "Point", "coordinates": [ -0.123933995716701, 51.486007045486197 ] } },
{ "type": "Feature", "properties": { "OBJECTID": 135, "STOP_NAME": "Finsbury Park, Station Place", "STATION_NAME": "Finsbury Park, Station Place", "DATA_SOURCE": null, "EASTING": 531398, "NORTHING": 186790, "COMMENT_": "Station Place\nFinsbury\nIslington N4 2DH", "DATASET_LAST_UPDATED": "2024-04-30T00:00:00Z" }, "geometry": { "type": "Point", "coordinates": [ -0.105691759445561, 51.564686169336902 ] } },
{ "type": "Feature", "properties": { "OBJECTID": 136, "STOP_NAME": "Edgware Bus Station", "STATION_NAME": "Edgware", "DATA_SOURCE": null, "EASTING": 542732, "NORTHING": 191717, "COMMENT_": "105 Station Road\nEdgeware\nBarnet HA8 7AW", "DATASET_LAST_UPDATED": "2024-04-30T00:00:00Z" }, "geometry": { "type": "Point", "coordinates": [ 0.059718196865619, 51.606205815710297 ] } },
{ "type": "Feature", "properties": { "OBJECTID": 137, "STOP_NAME": "Kingston, Fairfield North", "STATION_NAME": "Kingston, Fairfield North", "DATA_SOURCE": null, "EASTING": 518342, "NORTHING": 169286, "COMMENT_": "Fairfield North\nKingston KT1 2PG", "DATASET_LAST_UPDATED": "2024-04-30T00:00:00Z" }, "geometry": { "type": "Point", "coordinates": [ -0.299820187201488, 51.410257101232801 ] } },
{ "type": "Feature", "properties": { "OBJECTID": 138, "STOP_NAME": "Hammersmith (Lower)", "STATION_NAME": "Hammersmith (Lower)", "DATA_SOURCE": null, "EASTING": 523359, "NORTHING": 178723, "COMMENT_": "Broadway Centre\nHammersmith\nFulham W6 8AB", "DATASET_LAST_UPDATED": "2024-04-30T00:00:00Z" }, "geometry": { "type": "Point", "coordinates": [ -0.224432695712106, 51.494001409934299 ] } },
{ "type": "Feature", "properties": { "OBJECTID": 139, "STOP_NAME": "Shepherds Bush Interchange", "STATION_NAME": "Shepherds Bush Interchange", "DATA_SOURCE": null, "EASTING": 523366, "NORTHING": 180347, "COMMENT_": "Sheperds Bush Tube\nShepherds Bush\nFulham W12 7SL", "DATASET_LAST_UPDATED": "2024-04-30T00:00:00Z" }, "geometry": { "type": "Point", "coordinates": [ -0.223764540014379, 51.508594998366398 ] } },
{ "type": "Feature", "properties": { "OBJECTID": 140, "STOP_NAME": "Turnpike Lane", "STATION_NAME": "Turnpike Lane", "DATA_SOURCE": null, "EASTING": 531574, "NORTHING": 189613, "COMMENT_": "Carlingford Road\nHaringey N15 3EA", "DATASET_LAST_UPDATED": "2024-04-30T00:00:00Z" }, "geometry": { "type": "Point", "coordinates": [ -0.10209751675307, 51.590013810666299 ] } },
{ "type": "Feature", "properties": { "OBJECTID": 141, "STOP_NAME": "Edmonton Green", "STATION_NAME": "Edmonton Green", "DATA_SOURCE": null, "EASTING": 534476, "NORTHING": 193617, "COMMENT_": "Edmonton Green Bus Station (Stop A)\nTottenham\nEnfield N9 0TQ", "DATASET_LAST_UPDATED": "2024-04-30T00:00:00Z" }, "geometry": { "type": "Point", "coordinates": [ -0.058697817612183, 51.6253098015912 ] } },
{ "type": "Feature", "properties": { "OBJECTID": 142, "STOP_NAME": "Kingston, Cromwell Road", "STATION_NAME": "Kingston, Cromwell Road", "DATA_SOURCE": null, "EASTING": 518400, "NORTHING": 169533, "COMMENT_": "406 Cromwell Road\nKingston KT2 6RF", "DATASET_LAST_UPDATED": "2024-04-30T00:00:00Z" }, "geometry": { "type": "Point", "coordinates": [ -0.298904244847149, 51.412464951932598 ] } },
{ "type": "Feature", "properties": { "OBJECTID": 143, "STOP_NAME": "Canning Town", "STATION_NAME": "Canning Town", "DATA_SOURCE": null, "EASTING": 539433, "NORTHING": 181455, "COMMENT_": "Canning Stop A\nSilvertown Way\nNewham E16 1ED", "DATASET_LAST_UPDATED": "2024-04-30T00:00:00Z" }, "geometry": { "type": "Point", "coordinates": [ 0.008044735397057, 51.514819004817198 ] } },
{ "type": "Feature", "properties": { "OBJECTID": 144, "STOP_NAME": "North Greenwich", "STATION_NAME": "North Greenwich", "DATA_SOURCE": null, "EASTING": 539166, "NORTHING": 179784, "COMMENT_": "North Greenwich Station\nEdmund Halley Way\nGreenwich SE10 0PH", "DATASET_LAST_UPDATED": "2024-04-30T00:00:00Z" }, "geometry": { "type": "Point", "coordinates": [ 0.003540559565914, 51.499869258368498 ] } },
{ "type": "Feature", "properties": { "OBJECTID": 145, "STOP_NAME": "West Croydon", "STATION_NAME": "West Croydon", "DATA_SOURCE": null, "EASTING": 532260, "NORTHING": 166164, "COMMENT_": "Station Road\nCroydon CR0 2RD", "DATASET_LAST_UPDATED": "2024-04-30T00:00:00Z" }, "geometry": { "type": "Point", "coordinates": [ -0.100975774980372, 51.379128379808598 ] } },
{ "type": "Feature", "properties": { "OBJECTID": 146, "STOP_NAME": "White City Bus Station", "STATION_NAME": "White City", "DATA_SOURCE": null, "EASTING": 523368, "NORTHING": 180350, "COMMENT_": "Ariel Way\nShepherd Bush W12 7SQ", "DATASET_LAST_UPDATED": "2024-04-30T00:00:00Z" }, "geometry": { "type": "Point", "coordinates": [ -0.223734687578875, 51.508621523531801 ] } },
{ "type": "Feature", "properties": { "OBJECTID": 147, "STOP_NAME": "Hounslow", "STATION_NAME": "Hounslow", "DATA_SOURCE": null, "EASTING": 514350, "NORTHING": 175963, "COMMENT_": "Kingsley Road\nHounslow TW3 1NP", "DATASET_LAST_UPDATED": "2024-04-30T00:00:00Z" }, "geometry": { "type": "Point", "coordinates": [ -0.355038332009144, 51.471087224355898 ] } },
{ "type": "Feature", "properties": { "OBJECTID": 148, "STOP_NAME": "Canada Water", "STATION_NAME": "Canada Water", "DATA_SOURCE": null, "EASTING": 535441, "NORTHING": 179484, "COMMENT_": "Surrey Quays Road\nCanada Water\nSouthwark SE16 7BE", "DATASET_LAST_UPDATED": "2024-04-30T00:00:00Z" }, "geometry": { "type": "Point", "coordinates": [ -0.05020584666614, 51.498077404353801 ] } },
{ "type": "Feature", "properties": { "OBJECTID": 149, "STOP_NAME": "Hammersmith (Upper)", "STATION_NAME": "Hammersmith (Upper)", "DATA_SOURCE": null, "EASTING": 523359, "NORTHING": 178739, "COMMENT_": "Broadway Shopping Centre\nHammersmith\nFulham W6 8AB", "DATASET_LAST_UPDATED": "2024-04-30T00:00:00Z" }, "geometry": { "type": "Point", "coordinates": [ -0.224427108462554, 51.494145204372202 ] } },
{ "type": "Feature", "properties": { "OBJECTID": 150, "STOP_NAME": "Victoria Bus Station", "STATION_NAME": "Victoria", "DATA_SOURCE": null, "EASTING": 528933, "NORTHING": 179096, "COMMENT_": "London Terminus Place\nWestminter SW1V 1JR", "DATASET_LAST_UPDATED": "2024-04-30T00:00:00Z" }, "geometry": { "type": "Point", "coordinates": [ -0.14404861908722, 51.496111008088498 ] } },
{ "type": "Feature", "properties": { "OBJECTID": 151, "STOP_NAME": "Victoria Coach Station", "STATION_NAME": "Victoria Coach Station", "DATA_SOURCE": null, "EASTING": 528599, "NORTHING": 178689, "COMMENT_": "Arrivals Building Victoria Coach Station\n164 Buckingham Palace Road\nLondon SW1W 9TP", "DATASET_LAST_UPDATED": "2024-04-30T00:00:00Z" }, "geometry": { "type": "Point", "coordinates": [ -0.149005519053909, 51.492529394308299 ] } },
{ "type": "Feature", "properties": { "OBJECTID": 152, "STOP_NAME": "Finsbury Park, Wells Terrace", "STATION_NAME": "Finsbury Park, Wells Terrace", "DATA_SOURCE": null, "EASTING": 531298, "NORTHING": 186891, "COMMENT_": "Wells Terrace\nFinsbury\nIslington N4 3JU", "DATASET_LAST_UPDATED": "2024-04-30T00:00:00Z" }, "geometry": { "type": "Point", "coordinates": [ -0.107095934880789, 51.565617070175101 ] } },
{ "type": "Feature", "properties": { "OBJECTID": 153, "STOP_NAME": "Addington Village", "STATION_NAME": "Addington Village", "DATA_SOURCE": null, "EASTING": 537036, "NORTHING": 163851, "COMMENT_": "3 Kent Gate Way\nAddington\nCroydon CR0 5AR", "DATASET_LAST_UPDATED": "2024-04-30T00:00:00Z" }, "geometry": { "type": "Point", "coordinates": [ -0.033284092734981, 51.357211171208903 ] } },
{ "type": "Feature", "properties": { "OBJECTID": 154, "STOP_NAME": "Walthamstow", "STATION_NAME": "Walthamstow", "DATA_SOURCE": null, "EASTING": 537252, "NORTHING": 189067, "COMMENT_": "Selborne Road\nWaltham Forest E17 7LP", "DATASET_LAST_UPDATED": "2024-04-30T00:00:00Z" }, "geometry": { "type": "Point", "coordinates": [ -0.020399275122592, 51.583754221964 ] } },
{ "type": "Feature", "properties": { "OBJECTID": 155, "STOP_NAME": "Crystal Palace", "STATION_NAME": "Crystal Palace", "DATA_SOURCE": null, "EASTING": 533750, "NORTHING": 170841, "COMMENT_": "Crystal Palace Bus Station\nCrystal Palace Parade \nBromley \n SE19 1UA", "DATASET_LAST_UPDATED": "2024-04-30T00:00:00Z" }, "geometry": { "type": "Point", "coordinates": [ -0.077817873241991, 51.420809745697603 ] } },
{ "type": "Feature", "properties": { "OBJECTID": 156, "STOP_NAME": "London Bridge", "STATION_NAME": "London Bridge", "DATA_SOURCE": null, "EASTING": 532866, "NORTHING": 180120, "COMMENT_": "Joiner Street\nSouthwark SE1 9SP", "DATASET_LAST_UPDATED": "2024-04-30T00:00:00Z" }, "geometry": { "type": "Point", "coordinates": [ -0.087039970050186, 51.504403325830999 ] } },
{ "type": "Feature", "properties": { "OBJECTID": 157, "STOP_NAME": "Euston", "STATION_NAME": "Euston", "DATA_SOURCE": null, "EASTING": 529668, "NORTHING": 182613, "COMMENT_": "1 Eversholt Street\nCamden NW1 2DN", "DATASET_LAST_UPDATED": "2024-04-30T00:00:00Z" }, "geometry": { "type": "Point", "coordinates": [ -0.132174289329279, 51.527549169610701 ] } },
{ "type": "Feature", "properties": { "OBJECTID": 158, "STOP_NAME": "North Finchley", "STATION_NAME": "North Finchley", "DATA_SOURCE": null, "EASTING": 526386, "NORTHING": 192004, "COMMENT_": "Kingsway Tally Ho Corner\nBarnet N12 0BT", "DATASET_LAST_UPDATED": "2024-04-30T00:00:00Z" }, "geometry": { "type": "Point", "coordinates": [ -0.176084938416185, 51.612687647106704 ] } },
{ "type": "Feature", "properties": { "OBJECTID": 159, "STOP_NAME": "Liverpool Street", "STATION_NAME": "Liverpool Street", "DATA_SOURCE": null, "EASTING": 533123, "NORTHING": 181622, "COMMENT_": "78 Old Broad Street and Sun Street Passage\nTower Hamlets\nShoreditch EC2M 7PR", "DATASET_LAST_UPDATED": "2024-04-30T00:00:00Z" }, "geometry": { "type": "Point", "coordinates": [ -0.08277270227703, 51.517840492969199 ] } },
{ "type": "Feature", "properties": { "OBJECTID": 160, "STOP_NAME": "Harrow on the Hill", "STATION_NAME": "Harrow on the Hill", "DATA_SOURCE": null, "EASTING": 515289, "NORTHING": 188109, "COMMENT_": "College Road\nStation Road\nHarrow HA1 1BD", "DATASET_LAST_UPDATED": "2024-04-30T00:00:00Z" }, "geometry": { "type": "Point", "coordinates": [ -0.337554205916103, 51.580060825128797 ] } },
{ "type": "Feature", "properties": { "OBJECTID": 161, "STOP_NAME": "Golders Green", "STATION_NAME": "Golders Green", "DATA_SOURCE": null, "EASTING": 525234, "NORTHING": 187451, "COMMENT_": "North End Road\n1 Station Forecourt\nBarnet NW11 7RN", "DATASET_LAST_UPDATED": "2024-04-30T00:00:00Z" }, "geometry": { "type": "Point", "coordinates": [ -0.194336873958696, 51.572027715199503 ] } },
{ "type": "Feature", "properties": { "OBJECTID": 162, "STOP_NAME": "Stratford Regional Bus Station", "STATION_NAME": "Stratford Regional", "DATA_SOURCE": null, "EASTING": 538666, "NORTHING": 184348, "COMMENT_": "Great Eastern Road\nNewham E15 1XJ", "DATASET_LAST_UPDATED": "2024-04-30T00:00:00Z" }, "geometry": { "type": "Point", "coordinates": [ -0.001863731738931, 51.541003974117899 ] } },
{ "type": "Feature", "properties": { "OBJECTID": 163, "STOP_NAME": "Aldgate Bus Station", "STATION_NAME": "Aldgate", "DATA_SOURCE": null, "EASTING": 533633, "NORTHING": 181187, "COMMENT_": "150 The Minories\nAlgate\nTower Hamlets EC3N 1BD", "DATASET_LAST_UPDATED": "2024-04-30T00:00:00Z" }, "geometry": { "type": "Point", "coordinates": [ -0.075591605764079, 51.513811118372701 ] } },
{ "type": "Feature", "properties": { "OBJECTID": 164, "STOP_NAME": "Waltham Cross", "STATION_NAME": "Waltham Cross", "DATA_SOURCE": null, "EASTING": 536258, "NORTHING": 200359, "COMMENT_": "Eleanor Cross Road\nBroxbourne EN8 7LA", "DATASET_LAST_UPDATED": "2024-04-30T00:00:00Z" }, "geometry": { "type": "Point", "coordinates": [ -0.030345528827893, 51.685464569799699 ] } },
{ "type": "Feature", "properties": { "OBJECTID": 165, "STOP_NAME": "Brent Cross Bus Station-Shopping Centre", "STATION_NAME": "Brent Cross-Shopping Centre", "DATA_SOURCE": null, "EASTING": 523234, "NORTHING": 187802, "COMMENT_": "Brent Cross Shopping Centre\nPrince Charles Drive\nBarnet NW4 3FB", "DATASET_LAST_UPDATED": "2024-04-30T00:00:00Z" }, "geometry": { "type": "Point", "coordinates": [ -0.223057708600774, 51.575622439004903 ] } }
]
}
